Latitude,Longitude,Time,Date,Number of Sats,GPS Speed (Kn),GPS True Heading,GPS Magnetic Variation,HDOP,C Magnetic Heading,C True Heading,Pitch Angle,Roll Angle,C Inside Temp (c),DFS Depth (m),DTB Height (m),Total Water Column (m),Batt Percent,Power Watts,Watt-Hours,Batt Volts,Batt Ampers,Batt State,Time to Empty,Current Step,Dist To Next (m),Next Speed (kn),Vehicle Speed (kn),Motor Speed CMD,Next Heading,Next Long,Next Lat,Next Depth (m),Depth Goal (m),Vehicle State,Error State,Distance to Track (m),Fin Pitch R,Fin Pitch L,Pitch Goal,Fin Yaw T,Fin Yaw B,Yaw Goal,Fin Roll,DVL-Depth (m),DVL -Altitude (m),DVL -Water Column (m),DVL-FixType,DVL-FixQuality,DVL-Temperature,Conductivity (mmhos/cm),Temperature (c),Salinity (ppt),Sound Speed (m/s),Date m/d/y   ,Time hh:mm:ss,Temp C,SpCond mS/cm,Sal ppt,Depth feet,pH,pH mV,Turbid+ NTU,Chl ug/L,BGA-PC cells/mL,ODOsat %,ODO mg/L,Battery volts,ROSEM Command Type
37.2386685,-107.909269,30:17.6,6/11/19,10,0.348,175.97,9.191786132,0.83,154.6,160.67,3.51,-2.96,19.8,0,0.69,0.69,96,21,519.2,16.3,-1.3,D,1659.3,0,271.377,2.5,0,128,176.19,-107.9090648,37.23623469,0,0,1,N,200.3163,78,78,11,48,48,141.3229,0,9999.99,0.72,0.847,2,9,18.7,0,18.70000076,0.22,1478.52954,6/11/19,10:15:37,16.23,0.46,0.22,-6.267,9.26,-129.5,0.7,-4.2,-3907,81,7.95,12.5,
37.238667,-107.9092683,30:18.6,6/11/19,10,0.439,175.97,9.191786132,0.83,151.7,157.82,3.71,-2.75,19.7,0,0.72,0.72,96,21,519.2,16.3,-1.3,D,1659.3,0,271.232,2.5,0,128,176.18,-107.9090648,37.23623469,0,0,1,N,200.1729,79,79,11,59,59,141.3086,0,9999.99,0.75,0.877,2,9,18.7,0,18.70000076,0.22,1478.52954,6/11/19,10:15:39,16.24,0.46,0.22,-6.266,9.22,-127.1,-0.6,-1,-1755,81.3,7.97,12.4,
37.23866483,-107.9092678,30:19.6,6/11/19,10,0.358,175.97,9.191786132,0.83,148,154.21,4.93,0.01,19.7,0.01,0.73,0.74,96,23,519.2,16.3,-1.4,D,1536.5,0,270.878,2.5,0.36,184,176.21,-107.9090648,37.23623469,0,0,1,N,200.1729,87,87,11,215,215,176.2046,0,9999.99,0.76,0.887,2,9,18.7,0,18.70000076,0.22,1478.52954,6/11/19,10:15:39,16.24,0.46,0.22,-6.266,9.22,-127.1,-0.6,-1,-1755,81.3,7.97,12.4,
37.2386595,-107.9092673,30:20.6,6/11/19,10,0.978,175.97,9.191786132,0.83,148.1,154.31,4.56,7.61,19.8,0.03,0.72,0.75,96,23,519.2,16.3,-1.4,D,1536.5,0,270.626,2.5,0.45,184,176.21,-107.9090648,37.23623469,0,0,1,N,200.1729,84,84,11,215,215,176.2117,0,9999.99,0.77,0.897,2,9,18.7,0,18.70000076,0.22,1478.53172,6/11/19,10:15:40,16.24,0.461,0.22,-6.266,9.23,-127.4,-0.2,-1.8,-179,81.4,7.98,12.6,
37.23865033,-107.9092583,30:21.6,6/11/19,10,1.595,161.78,9.191786132,0.83,157.6,163.64,1.86,4.5,19.7,0.01,0.77,0.79,96,45,519.2,16.3,-2.7,D,781.6,0,269.934,2.5,0.75,184,176.22,-107.9090648,37.23623469,0,0,1,N,200.1729,70,70,11,182,182,176.2143,0,9999.99,0.8,0.927,2,9,18.7,0,18.70000076,0.22,1478.53336,6/11/19,10:15:42,16.26,0.462,0.22,-6.256,9.18,-124.5,-0.9,-6.8,-1742,81.4,7.98,12.7,
37.238641,-107.9092523,30:22.6,6/11/19,10,1.794,163.22,9.191786132,0.83,160.7,166.72,2.78,4.9,19.8,0,0.85,0.85,96,51,519.2,16.3,-3.1,D,691.1,0,268.689,2.5,1.11,184,176.37,-107.9090648,37.23623469,0,0,1,N,200.1729,72,72,11,169,169,176.3719,0,9999.99,0.87,0.997,2,9,18.6,0,18.70000076,0.22,1478.53336,6/11/19,10:15:42,16.26,0.462,0.22,-6.256,9.18,-124.5,-0.9,-6.8,-1742,81.4,7.98,12.7,
37.23863167,-107.9092497,30:23.6,6/11/19,10,1.93,166.12,9.191786132,0.83,165.8,171.82,2.57,5.22,19.7,0,0.87,0.87,96,51,519.2,16.3,-3.1,D,691.1,0,267.453,2.5,1.38,184,176.47,-107.9090648,37.23623469,0,0,1,N,200.1729,72,72,11,146,146,176.4662,0,9999.99,0.89,1.017,2,9,18.6,0,18.60000038,0.22,1478.21146,6/11/19,10:15:43,16.28,0.462,0.22,-6.202,9.14,-122.7,-0.5,-0.8,-1542,81.5,7.99,12.4,
37.23862123,-107.909248,30:24.6,6/11/19,10,2.013,170.95,9.191786132,0.83,168.7,174.74,3.84,4.19,19.7,0.01,1,1.01,96,51,519.2,16.3,-3.1,D,691.1,0,265.868,2.5,1.63,184,176.5,-107.9090648,37.23623469,0,0,1,N,200.1729,80,80,11,134,134,176.4981,0,9999.99,1.03,1.157,2,9,18.6,0,18.60000038,0.22,1478.21176,6/11/19,10:15:45,16.32,0.462,0.22,-6.227,9.13,-122,-0.7,-4.9,-1327,81.6,7.99,12.5,
37.23861167,-107.9092465,30:25.6,6/11/19,10,2.133,174.04,9.191786132,0.83,170.6,176.67,2.81,5.65,19.7,0.01,1.12,1.13,96,51,519.2,16.3,-3.1,D,691.1,0,264.966,2.5,1.82,184,176.51,-107.9090648,37.23623469,0,0,1,N,200.1729,74,74,11,128,128,176.5063,0,9999.99,1.15,1.277,2,9,18.6,0,18.60000038,0.22,1478.21176,6/11/19,10:15:45,16.32,0.462,0.22,-6.227,9.13,-122,-0.7,-4.9,-1327,81.6,7.99,12.5,
37.23860133,-107.9092457,30:26.6,6/11/19,10,2.233,176.52,9.191786132,0.83,172.3,178.39,2.51,5.8,19.7,0,1.22,1.22,96,47,519.1,16.3,-2.9,D,736.9,0,263.879,2.5,1.96,184,176.51,-107.9090648,37.23623469,0,0,1,N,200.1729,71,71,11,120,120,176.5154,0,9999.99,1.24,1.367,2,9,18.6,0,18.60000038,0.22,1478.21195,6/11/19,10:15:47,16.33,0.463,0.22,-6.219,9.12,-121.1,-1.2,-5.6,-2565,81.7,8,12.4,
37.23858983,-107.9092452,30:27.6,6/11/19,10,2.2,178.35,9.191786132,0.83,170.6,176.67,2.08,6.4,19.7,0,1.29,1.29,96,47,519.1,16.3,-2.9,D,736.9,0,262.368,2.5,2.02,184,176.51,-107.9090648,37.23623469,0,0,1,N,200.1729,69,69,11,126,126,176.5164,0,9999.99,1.31,1.437,2,9,18.5,0,18.60000038,0.22,1478.21195,6/11/19,10:15:47,16.33,0.463,0.22,-6.219,9.12,-121.1,-1.2,-5.6,-2565,81.7,8,12.4,
37.23857912,-107.9092432,30:28.7,6/11/19,10,2.2,178.28,9.191786132,0.83,169.7,175.76,2.93,7.13,19.8,0,1.42,1.42,96,47,519.1,16.3,-2.9,D,737.7,0,261.169,2.5,2.1,184,176.53,-107.9090648,37.23623469,0,0,1,N,200.1729,73,73,11,130,130,176.5075,0,9999.99,1.44,1.567,2,9,18.5,0,18.5,0.22,1477.89187,6/11/19,10:15:48,16.34,0.462,0.22,-6.203,9.1,-119.9,-1.5,-4,-2841,81.8,8.01,12.4,
37.23857006,-107.9092445,30:29.7,6/11/19,10,2.222,179.68,9.191786132,0.83,172.7,178.8,2.91,6.51,19.7,0,1.63,1.63,96,47,519.1,16.3,-2.9,D,737.7,0,260.17,2.5,2.19,184,176.49,-107.9090648,37.23623469,0,0,1,N,1.12E-03,74,74,11,113,113,175.2836,0,9999.99,1.65,1.777,2,9,18.5,0,18.5,0.22,1477.89177,6/11/19,10:15:49,16.33,0.462,0.22,-6.195,9.12,-121.5,-1.1,-3,-3556,82,8.02,12.6,
37.23856056,-107.9092454,30:30.7,6/11/19,11,2.183,179.85,9.191786132,0.8,170.8,176.87,3.02,5.84,19.7,0,1.99,1.99,96,47,519.1,16.3,-2.9,D,737.7,0,259.121,2.5,2.19,184,176.46,-107.9090648,37.23623469,0,0,1,N,0.1940439,75,75,11,116,116,174.1853,0,9999.99,2.01,2.137,2,9,18.5,0,18.5,0.22,1477.89181,6/11/19,10:15:51,16.34,0.462,0.22,-6.206,9.05,-117.4,-0.5,-2.1,-1696,82.1,8.04,12.5,
37.23854941,-107.9092456,30:31.7,6/11/19,11,2.266,180.11,9.191786132,0.8,170.4,176.46,2.94,7.22,19.7,0,2.3,2.3,96,47,519.1,16.3,-2.9,D,738.6,0,257.883,2.5,2.18,185,176.44,-107.9090648,37.23623469,0,0,1,N,0.3333422,75,75,11,115,115,173.5482,0,9999.99,2.32,2.447,2,9,18.5,0,18.5,0.22,1477.89181,6/11/19,10:15:51,16.34,0.462,0.22,-6.206,9.05,-117.4,-0.5,-2.1,-1696,82.1,8.04,12.5,
37.2385384,-107.9092457,30:32.7,6/11/19,11,2.192,179.24,9.191786132,0.8,171.4,177.48,2.72,6.14,19.7,0,2.59,2.59,96,47,519.1,16.3,-2.9,D,738.6,0,256.662,2.5,2.2,185,176.42,-107.9090648,37.23623469,0,0,1,N,0.4047628,73,73,11,109,109,172.9158,0,9999.99,2.61,2.737,2,9,18.4,0,18.39999962,0.22,1477.57173,6/11/19,10:15:53,16.34,0.462,0.22,-6.233,9.05,-117.4,-1.2,-1.3,-2995,82.2,8.05,12.4,
37.23852753,-107.9092459,30:33.7,6/11/19,11,2.21,179.2,9.191786132,0.8,169.5,175.55,2.09,6.75,19.7,0,2.59,2.59,96,47,519.1,16.3,-2.9,D,738.6,0,255.457,2.5,2.26,185,176.4,-107.9090648,37.23623469,0,0,1,N,0.5007426,70,70,11,114,114,172.284,0,9999.99,2.61,2.737,2,9,18.4,0,18.39999962,0.22,1477.57181,6/11/19,10:15:54,16.34,0.462,0.22,-6.23,9.02,-115.7,-0.8,-3.4,-3608,82.3,8.06,12.4,
37.23851767,-107.9092463,30:34.7,6/11/19,11,2.253,179.09,9.191786132,0.8,168.8,174.85,2.42,6.71,19.8,0,2.75,2.75,96,47,519.1,16.3,-2.9,D,738.6,0,254.318,2.5,2.23,186,176.4,-107.9090648,37.23623469,0,0,1,N,0.5873132,72,72,11,116,116,172.3362,0,9999.99,2.78,2.907,2,9,18.4,0,18.39999962,0.22,1477.57181,6/11/19,10:15:54,16.34,0.462,0.22,-6.23,9.02,-115.7,-0.8,-3.4,-3608,82.3,8.06,12.4,
37.238507,-107.9092465,30:35.7,6/11/19,11,2.203,178.19,9.191786132,0.8,167.5,173.53,3.31,6.87,19.8,0,2.74,2.75,96,49,519.1,16.3,-3,D,717,0,253.216,2.5,2.23,186,176.39,-107.9090648,37.23623469,0,0,1,N,0.6640912,73,73,11,122,122,171.7893,0,9999.99,2.77,2.897,2,9,18.4,0,18.39999962,0.22,1477.57148,6/11/19,10:15:56,16.35,0.462,0.22,-6.213,9.02,-115.6,-1.7,-3.1,194,82.4,8.07,12.4,
37.23849617,-107.9092462,30:36.7,6/11/19,11,2.27,177.68,9.191786132,0.8,167.5,173.53,2.16,8,19.8,0,2.69,2.69,96,49,519.1,16.3,-3,D,717,0,252.035,2.5,2.23,186,176.37,-107.9090648,37.23623469,0,0,1,N,0.7280878,74,74,11,117,117,171.3345,0,9999.99,2.72,2.847,2,9,18.4,0,18.39999962,0.22,1477.57164,6/11/19,10:15:57,16.35,0.463,0.22,-6.239,9.01,-115.2,-1,3.7,-2425,82.5,8.07,12.3,
37.23848452,-107.9092453,30:37.7,6/11/19,11,2.218,176.67,9.191786132,0.8,166.1,172.12,3,5.84,19.8,0,2.61,2.61,96,49,519.1,16.3,-3,D,717,0,250.681,2.5,2.28,186,176.35,-107.9090648,37.23623469,0,0,1,N,0.7623464,75,75,11,121,121,170.5438,0,9999.99,2.63,2.757,2,9,18.4,0,18.39999962,0.22,1477.57164,6/11/19,10:15:57,16.35,0.463,0.22,-6.239,9.01,-115.2,-1,3.7,-2425,82.5,8.07,12.3,
37.23847368,-107.9092441,30:38.7,6/11/19,11,2.252,175.6,9.191786132,0.8,166.5,172.53,2.91,6.98,19.8,0,2.59,2.59,96,50,519.1,16.3,-3.1,D,696.4,0,249.471,2.5,2.3,187,176.35,-107.9090648,37.23623469,0,0,1,N,0.7357192,74,74,11,116,116,170.765,0,9999.99,2.61,2.737,2,9,18.3,0,18.29999924,0.22,1477.25072,6/11/19,10:15:59,16.35,0.462,0.22,-6.198,9,-114.5,-0.9,-3.2,-1999,82.6,8.08,12.5,
37.23846305,-107.9092431,30:39.7,6/11/19,11,2.293,175.74,9.191786132,0.8,165.4,171.42,2.99,7.11,19.8,0,2.63,2.63,96,50,519.1,16.3,-3.1,D,696.4,0,248.286,2.5,2.24,187,176.36,-107.9090648,37.23623469,0,0,1,N,0.7189207,75,75,11,127,127,170.8831,0,9999.99,2.66,2.787,2,9,18.3,0,18.29999924,0.22,1477.25069,6/11/19,10:16:00,16.36,0.462,0.22,-6.218,8.99,-113.6,-1.9,-4,-3988,82.6,8.08,12.3,
37.23845235,-107.9092421,30:40.7,6/11/19,11,2.27,175.12,9.191786132,0.8,165.4,171.42,2.21,7.85,19.8,0,2.63,2.63,96,50,519.1,16.3,-3.1,D,696.4,0,247.094,2.5,2.27,187,176.36,-107.9090648,37.23623469,0,0,1,N,0.6868926,72,72,11,127,127,170.9935,0,9999.99,2.66,2.787,2,9,18.3,0,18.29999924,0.22,1477.25069,6/11/19,10:16:00,16.36,0.462,0.22,-6.218,8.99,-113.6,-1.9,-4,-3988,82.6,8.08,12.3,
37.23844091,-107.9092407,30:41.7,6/11/19,11,2.233,173.92,9.191786132,0.8,165.4,171.42,2.86,7.08,19.8,0,2.63,2.63,96,50,519.1,16.3,-3.1,D,696.4,0,245.815,2.5,2.27,187,176.37,-107.9090648,37.23623469,0,0,1,N,0.7299922,74,74,11,127,127,171.3211,0,9999.99,2.66,2.787,2,9,18.3,0,18.29999924,0.22,1477.2506,6/11/19,10:16:02,16.35,0.462,0.22,-6.212,8.98,-113.6,-0.8,0.7,-3457,82.7,8.09,12.5,
37.23843136,-107.9092394,30:42.7,6/11/19,11,2.257,173.59,9.191786132,0.8,166.2,172.22,2.78,6.65,19.8,0,2.63,2.63,96,51,519,16.2,-3.1,D,686.8,0,244.749,2.5,2.27,187,176.38,-107.9090648,37.23623469,0,0,1,N,0.6247569,77,77,11,125,125,171.6709,0,9999.99,2.66,2.787,2,9,18.3,0,18.29999924,0.22,1477.25051,6/11/19,10:16:03,16.36,0.462,0.22,-6.221,8.97,-112.5,-1.3,-3.6,-1671,82.7,8.09,12.4,
37.23842051,-107.909238,30:43.7,6/11/19,11,2.246,174.17,9.191786132,0.8,165.7,171.72,3.61,6.93,19.8,0,3.09,3.09,96,51,519,16.2,-3.1,D,686.8,0,243.538,2.5,2.3,188,176.39,-107.9090648,37.23623469,0,0,1,N,0.5778108,79,79,11,128,128,171.9988,0,9999.99,3.12,3.247,2,9,18.3,0,18.29999924,0.22,1477.25072,6/11/19,10:16:04,16.35,0.462,0.22,-6.221,8.96,-112.1,-0.8,-2.7,-746,82.8,8.1,12.5,
37.23840918,-107.9092368,30:44.7,6/11/19,11,2.253,173.73,9.191786132,0.8,165.7,171.72,3.68,7.21,19.8,0,3.24,3.24,96,51,519,16.2,-3.1,D,686.8,0,242.272,2.5,2.32,188,176.4,-107.9090648,37.23623469,0,0,1,N,0.5928925,79,79,11,129,129,172.2961,0,9999.99,3.27,3.397,2,9,18.3,0,18.29999924,0.22,1477.25071,6/11/19,10:16:05,16.36,0.462,0.22,-6.231,8.97,-113,-1.9,0.7,-3284,82.9,8.11,12.4,
37.23839819,-107.9092355,30:45.7,6/11/19,11,2.295,174.06,9.191786132,0.8,165.8,171.82,3.59,6.35,19.8,0,3.51,3.51,96,52,519,16.2,-3.2,D,666,0,241.046,2.5,2.3,188,176.4,-107.9090648,37.23623469,0,0,1,N,0.558592,79,79,11,130,130,172.5406,0,9999.99,3.53,3.657,2,9,18.3,0,18.29999924,0.22,1477.25046,6/11/19,10:16:06,16.37,0.463,0.22,-6.238,8.95,-111.4,-2,-5.3,-2151,82.9,8.11,12.5,
37.23838751,-107.9092344,30:46.7,6/11/19,11,2.235,174.29,9.191786132,0.8,166.7,172.73,3,8,19.8,0,3.77,3.77,96,52,519,16.2,-3.2,D,666,0,239.854,2.5,2.31,188,176.41,-107.9090648,37.23623469,0,0,1,N,0.5321201,75,75,11,127,127,172.7292,0,9999.99,3.8,3.927,2,9,18.3,0,18.29999924,0.22,1477.25048,6/11/19,10:16:07,16.38,0.462,0.22,-6.24,8.93,-110.6,-1.4,-1.3,-826,83,8.12,12.4,
37.23837832,-107.9092335,30:47.7,6/11/19,11,2.317,174.14,9.191786132,0.8,166.3,172.32,3.21,6.37,19.8,0,3.92,3.92,96,52,519,16.2,-3.2,D,666,0,238.83,2.5,2.33,188,176.42,-107.9090648,37.23623469,0,0,1,N,0.4614003,76,76,11,129,129,172.9012,0,9999.99,3.95,4.077,2,9,18.3,0,18.29999924,0.22,1477.25053,6/11/19,10:16:08,16.39,0.462,0.22,-6.241,8.97,-112.8,-1.2,4,-1424,83.1,8.12,12.4,
37.2383675,-107.9092323,30:48.7,6/11/19,12,2.268,174.65,9.191786132,0.8,167.5,173.53,2.51,7.25,19.7,0,3.7,3.7,96,52,519,16.2,-3.2,D,666,0,237.623,2.5,2.32,188,176.42,-107.9090648,37.23623469,0,0,1,N,0.4308832,72,72,11,125,125,173.1172,0,9999.99,3.73,3.857,2,9,18.2,0,18.20000076,0.22,1476.92887,6/11/19,10:16:09,16.39,0.462,0.22,-6.261,8.94,-111,-1.6,-3.1,-3083,83.1,8.12,12.4,
37.23835651,-107.9092315,30:49.7,6/11/19,12,2.299,175.72,9.191786132,0.8,166.6,172.63,3.42,7.46,19.8,0,3.68,3.68,96,53,519,16.2,-3.2,D,656,0,236.398,2.5,2.3,188,176.42,-107.9090648,37.23623469,0,0,1,N,0.4229076,75,75,11,128,128,173.1231,0,9999.99,3.71,3.837,2,9,18.2,0,18.20000076,0.22,1476.92882,6/11/19,10:16:10,16.4,0.462,0.22,-6.242,8.92,-110.1,-1.4,-2.1,-2024,83.1,8.12,12.4,
37.23834583,-107.9092308,30:50.7,6/11/19,12,2.302,175.83,9.191786132,0.8,168.1,174.14,3.29,6.77,19.8,0,3.6,3.6,96,53,519,16.2,-3.2,D,656,0,235.209,2.5,2.32,188,176.42,-107.9090648,37.23623469,0,0,1,N,0.4122511,76,76,11,125,125,173.0321,0,9999.99,3.63,3.757,2,9,18.2,0,18.20000076,0.22,1476.9287,6/11/19,10:16:11,16.4,0.462,0.22,-6.228,8.97,-112.6,-1.6,-2.9,-1132,83.1,8.12,12.3,
37.23833551,-107.9092302,30:51.7,6/11/19,12,2.264,176.52,9.191786132,0.8,167.4,173.43,3.77,7.86,19.8,0,3.4,3.4,96,53,519,16.2,-3.2,D,656,0,234.06,2.5,2.28,188,176.41,-107.9090648,37.23623469,0,0,1,N,0.4303248,80,80,11,125,125,172.9488,0,9999.99,3.42,3.547,2,9,18.2,0,18.20000076,0.22,1476.92854,6/11/19,10:16:12,16.4,0.462,0.22,-6.224,8.93,-110.5,-1.1,-0.4,-3395,83.1,8.12,12.6,
37.23832502,-107.9092296,30:52.7,6/11/19,12,2.224,176.42,9.191786132,0.8,168.3,174.34,3.38,6.35,19.8,0,3.52,3.52,96,52,518.9,16.2,-3.2,D,664,0,232.894,2.5,2.27,189,176.41,-107.9090648,37.23623469,0,0,1,N,0.4487308,77,77,11,121,121,172.7686,0,9999.99,3.54,3.667,2,9,18.2,0,18.20000076,0.22,1476.92855,6/11/19,10:16:13,16.4,0.462,0.22,-6.26,8.91,-109.3,-1.8,-3.2,-1891,83.1,8.13,12.4,
37.23831322,-107.9092288,30:53.7,6/11/19,12,2.261,177.23,9.191786132,0.8,169,175.05,3.21,8.7,19.8,0,3.88,3.89,96,52,518.9,16.2,-3.2,D,664,0,231.58,2.5,2.26,189,176.4,-107.9090648,37.23623469,0,0,1,N,0.5320957,76,76,11,119,119,172.7295,0,9999.99,3.91,4.037,2,9,18.2,0,18.20000076,0.22,1476.92865,6/11/19,10:16:14,16.4,0.462,0.22,-6.236,8.89,-108.3,-1.6,-1.9,-2839,83.2,8.13,12.6,
37.23830404,-107.9092287,30:54.8,6/11/19,12,2.339,176.82,9.191786132,0.8,168.8,174.85,3.53,7.58,19.9,0,4.14,4.14,96,52,518.9,16.2,-3.2,D,664,0,230.56,2.5,2.24,189,176.39,-107.9090648,37.23623469,0,0,1,N,0.4878424,78,78,11,117,117,172.3847,0,9999.99,4.17,4.297,2,9,18.2,0,18.20000076,0.22,1476.9288,6/11/19,10:16:15,16.4,0.462,0.22,-6.265,8.94,-111,-1.5,-0.9,292,83.2,8.13,12.4,
37.23829351,-107.9092283,30:55.7,6/11/19,12,2.233,176.99,9.191786132,0.8,168.8,174.85,3.21,7.64,19.9,0,4.29,4.29,96,52,518.9,16.2,-3.2,D,664,0,229.39,2.5,2.27,189,176.38,-107.9090648,37.23623469,0,0,1,N,0.5265868,76,76,11,116,116,172.092,0,9999.99,4.31,4.437,2,9,18.2,0,18.20000076,0.22,1476.92877,6/11/19,10:16:16,16.4,0.462,0.22,-6.226,8.9,-108.8,-0.9,1.8,-2169,83.2,8.13,12.6,
37.23828186,-107.9092279,30:56.8,6/11/19,12,2.175,176.54,9.191786132,0.8,168.2,174.24,3.83,8.1,19.9,0,4.41,4.42,96,54,518.9,16.2,-3.3,D,650.2,0,228.094,2.5,2.29,190,176.37,-107.9090648,37.23623469,0,0,1,N,0.6671823,80,80,11,117,117,171.7672,0,9999.99,4.44,4.567,2,9,18.2,0,18.20000076,0.22,1476.92877,6/11/19,10:16:17,16.41,0.462,0.22,-6.244,8.89,-108.3,-1.4,-2.4,-374,83.2,8.13,12.5,
37.23827185,-107.9092274,30:57.8,6/11/19,12,2.206,175.97,9.191786132,0.8,168.3,174.34,3.65,7.34,19.8,0,4.57,4.57,96,54,518.9,16.2,-3.3,D,650.2,0,226.981,2.5,2.3,190,176.36,-107.9090648,37.23623469,0,0,1,N,0.6895153,79,79,11,116,116,171.6084,0,9999.99,4.6,4.727,2,9,18.2,0,18.20000076,0.22,1476.92891,6/11/19,10:16:18,16.41,0.462,0.22,-6.264,8.88,-107.4,-1.6,-0.2,-4792,83.3,8.14,12.6,
37.23826133,-107.9092271,30:58.8,6/11/19,12,2.408,176.59,9.191786132,0.8,167.2,173.23,3.38,7.58,19.8,0,4.65,4.65,96,54,518.9,16.2,-3.3,D,650.2,0,225.811,2.5,2.32,190,176.35,-107.9090648,37.23623469,0,0,1,N,0.7332049,77,77,11,119,119,171.2982,0,9999.99,4.68,4.807,2,9,18.2,0,18.20000076,0.22,1476.92879,6/11/19,10:16:19,16.42,0.462,0.22,-6.258,8.91,-109.5,-1.7,-1.7,-2417,83.3,8.14,12.3,
37.23825032,-107.9092268,30:59.8,6/11/19,12,2.281,176.66,9.191786132,0.8,167.5,173.53,3.61,8.9,19.9,0,4.69,4.69,96,54,518.9,16.2,-3.3,D,650.2,0,224.587,2.5,2.33,190,176.34,-107.9090648,37.23623469,0,0,1,N,0.7770591,79,79,11,117,117,170.9868,0,9999.99,4.72,4.847,2,9,18.2,0,18.20000076,0.22,1476.92868,6/11/19,10:16:20,16.41,0.462,0.22,-6.253,8.88,-107.7,-1,-0.2,-366,83.3,8.14,12.5,
37.23823983,-107.9092261,31:00.8,6/11/19,12,2.313,175.7,9.191786132,0.8,166.9,172.93,4.47,7.93,19.9,0,4.68,4.68,96,55,518.9,16.2,-3.4,D,634.7,0,223.42,2.5,2.32,190,176.34,-107.9090648,37.23623469,0,0,1,N,0.78719,84,84,11,119,119,170.9147,0,9999.99,4.71,4.837,2,9,18.2,0,18.20000076,0.22,1476.92867,6/11/19,10:16:21,16.41,0.462,0.22,-6.25,8.87,-107.3,-0.9,-2,-817,83.4,8.15,12.4,
37.23822918,-107.9092253,31:01.8,6/11/19,12,2.354,176.18,9.191786132,0.8,167.2,173.23,3.65,7.2,19.9,0,4.79,4.79,96,55,518.9,16.2,-3.4,D,634.7,0,222.233,2.5,2.31,190,176.33,-107.9090648,37.23623469,0,0,1,N,0.7868538,79,79,11,118,118,170.917,0,9999.99,4.82,4.947,2,9,18.2,0,18.20000076,0.22,1476.92882,6/11/19,10:16:22,16.41,0.462,0.22,-6.26,8.86,-106.5,-1.6,-2.1,-3546,83.4,8.15,12.4,
37.23821802,-107.9092246,31:02.8,6/11/19,12,2.42,176.18,9.191786132,0.8,166.8,172.83,3.21,8.3,19.8,0,4.86,4.86,96,55,518.9,16.2,-3.4,D,634.7,0,220.991,2.5,2.3,190,176.33,-107.9090648,37.23623469,0,0,1,N,0.8014147,78,78,11,122,122,170.8139,0,9999.99,4.89,5.017,2,9,18.2,0,18.20000076,0.22,1476.92869,6/11/19,10:16:23,16.42,0.462,0.22,-6.246,8.9,-108.6,-0.7,1,-2570,83.4,8.15,12.4,
37.23820699,-107.9092237,31:03.8,6/11/19,12,2.304,174.86,9.191786132,0.8,166.2,172.22,2.84,7.73,19.8,0,4.88,4.88,96,55,518.9,16.2,-3.4,D,630.7,0,219.762,2.5,2.33,190,176.33,-107.9090648,37.23623469,0,0,1,N,0.7982667,75,75,11,119,119,170.8361,0,9999.99,4.91,5.037,2,9,18.1,0,18.10000038,0.22,1476.60595,6/11/19,10:16:24,16.42,0.463,0.22,-6.246,8.86,-106.7,-1.5,-2.6,-4304,83.4,8.15,12.6,
37.23819596,-107.9092227,31:04.8,6/11/19,12,2.382,175.79,9.191786132,0.8,167.1,173.13,3.6,7.72,19.9,0,4.56,4.56,96,55,518.9,16.2,-3.4,D,630.7,0,218.533,2.5,2.35,190,176.33,-107.9090648,37.23623469,0,0,1,N,0.7861217,77,77,11,119,119,170.9225,0,9999.99,4.59,4.717,2,9,18.1,0,18.10000038,0.22,1476.6059,6/11/19,10:16:25,16.42,0.463,0.22,-6.238,8.86,-106.4,-2.1,-2.8,-2617,83.5,8.16,12.4,
37.23818544,-107.9092218,31:05.8,6/11/19,12,2.318,175.05,9.191786132,0.8,165.1,171.12,3.58,8.4,19.8,0,4.12,4.12,96,55,518.9,16.2,-3.4,D,630.7,0,217.36,2.5,2.39,190,176.33,-107.9090648,37.23623469,0,0,1,N,0.7817267,78,78,11,126,126,170.9534,0,9999.99,4.16,4.287,2,9,18.1,0,18.10000038,0.22,1476.60568,6/11/19,10:16:26,16.42,0.462,0.22,-6.246,8.85,-105.6,-1.3,-5.6,-1888,83.5,8.16,12.4,
37.23817446,-107.9092207,31:06.8,6/11/19,12,2.296,173.98,9.191786132,0.8,165.9,171.92,3.69,7.41,19.9,0,3.81,3.81,96,55,518.9,16.2,-3.4,D,630.7,0,216.135,2.5,2.36,190,176.34,-107.9090648,37.23623469,0,0,1,N,0.7517571,80,80,11,123,123,171.1662,0,9999.99,3.84,3.967,2,9,18.1,0,18.10000038,0.22,1476.6057,6/11/19,10:16:27,16.42,0.462,0.22,-6.253,8.88,-107.6,-1.6,-3.1,-3067,83.5,8.16,12.5,
37.23816365,-107.9092194,31:07.8,6/11/19,12,2.322,173.77,9.191786132,0.8,164.7,170.72,3.62,8.4,19.8,0,3.4,3.4,96,55,518.8,16.2,-3.4,D,632.1,0,214.927,2.5,2.34,190,176.35,-107.9090648,37.23623469,0,0,1,N,0.7073461,79,79,11,125,125,171.4817,0,9999.99,3.43,3.557,2,9,18.1,0,18.10000038,0.22,1476.60574,6/11/19,10:16:28,16.42,0.462,0.22,-6.26,8.85,-105.8,-1.5,-3.2,-4273,83.6,8.17,12.5,
37.23815267,-107.9092184,31:08.8,6/11/19,11,2.529,174.82,9.191786132,0.84,165.9,171.92,3.7,6.78,19.8,0,3.23,3.23,96,55,518.8,16.2,-3.4,D,632.1,0,213.704,2.5,2.32,190,176.35,-107.9090648,37.23623469,0,0,1,N,0.6932321,79,79,11,126,126,171.5819,0,9999.99,3.26,3.387,2,9,18.1,0,18.10000038,0.22,1476.60562,6/11/19,10:16:29,16.42,0.463,0.22,-6.239,8.84,-105.6,-2,-5.1,-1009,83.6,8.17,12.5,
37.23814136,-107.9092174,31:09.8,6/11/19,12,2.431,174.91,9.191786132,0.84,164.9,170.92,3.46,8.9,19.8,0,3.24,3.24,96,55,518.8,16.2,-3.4,D,632.1,0,212.443,2.5,2.31,191,176.35,-107.9090648,37.23623469,0,0,1,N,0.6820095,78,78,11,130,130,171.6616,0,9999.99,3.27,3.397,2,9,18.1,0,18.10000038,0.22,1476.60607,6/11/19,10:16:30,16.42,0.462,0.22,-6.262,8.89,-108.3,-1.2,-1.6,-1588,83.6,8.17,12.5,
37.23812998,-107.9092164,31:10.8,6/11/19,12,2.338,175.05,9.191786132,0.84,166.4,172.42,3.69,7.94,19.9,0,3.31,3.31,96,56,518.8,16.2,-3.4,D,619.5,0,211.175,2.5,2.34,191,176.36,-107.9090648,37.23623469,0,0,1,N,0.6678782,81,81,11,122,122,171.762,0,9999.99,3.34,3.467,2,9,18.1,0,18.10000038,0.22,1476.60619,6/11/19,10:16:31,16.42,0.462,0.22,-6.263,8.85,-105.8,-2.1,-1.4,-3129,83.6,8.17,12.4,
37.23811883,-107.9092155,31:11.8,6/11/19,11,2.41,174.99,9.191786132,0.84,166.1,172.12,4.29,8.1,19.8,0,3.45,3.46,96,56,518.8,16.2,-3.4,D,619.5,0,209.933,2.5,2.33,191,176.36,-107.9090648,37.23623469,0,0,1,N,0.6701593,83,83,11,125,125,171.7459,0,9999.99,3.49,3.617,2,9,18.1,0,18.10000038,0.22,1476.60567,6/11/19,10:16:32,16.42,0.462,0.22,-6.251,8.83,-104.7,-1.9,-2.7,-1068,83.6,8.17,12.3,
37.23810697,-107.9092141,31:12.9,6/11/19,11,2.393,175.13,9.191786132,0.84,167,173.03,3.97,8.4,19.8,0,3.74,3.75,96,56,518.8,16.2,-3.4,D,619.5,0,208.608,2.5,2.34,191,176.37,-107.9090648,37.23623469,0,0,1,N,0.6159565,81,81,11,123,123,172.1317,0,9999.99,3.78,3.907,2,9,18.1,0,18.10000038,0.22,1476.60579,6/11/19,10:16:33,16.42,0.463,0.22,-6.262,8.82,-104.1,-1.8,-2.8,413,83.7,8.18,12.6,
37.23809543,-107.9092133,31:13.9,6/11/19,10,2.407,176.54,9.191786132,0.84,168.1,174.14,3.95,7.02,19.8,0,3.95,3.95,96,56,518.8,16.2,-3.4,D,619.5,0,207.323,2.5,2.36,191,176.36,-107.9090648,37.23623469,0,0,1,N,0.6233293,85,85,11,120,120,172.079,0,9999.99,3.99,4.117,2,9,18.1,0,18.10000038,0.22,1476.60582,6/11/19,10:16:34,16.42,0.463,0.22,-6.281,8.86,-106.6,-2.1,-3.1,-3319,83.7,8.18,12.3,
37.23808416,-107.9092119,31:14.9,6/11/19,11,2.417,175.97,9.191786132,0.84,167.8,173.84,3.86,7.79,19.9,0,4.02,4.02,96,56,518.8,16.2,-3.4,D,617.2,0,206.065,2.5,2.32,191,176.38,-107.9090648,37.23623469,0,0,1,N,0.5768723,80,80,11,121,121,172.41,0,9999.99,4.05,4.177,2,9,18.1,0,18.10000038,0.22,1476.60579,6/11/19,10:16:35,16.42,0.463,0.22,-6.271,8.82,-104.5,-1.6,-3,-5230,83.8,8.19,12.4,
37.2380728,-107.9092108,31:15.9,6/11/19,10,2.338,175.98,9.191786132,0.84,168,174.04,4.35,8.1,19.9,0,4.18,4.18,96,56,518.8,16.2,-3.4,D,617.2,0,204.798,2.5,2.34,191,176.38,-107.9090648,37.23623469,0,0,1,N,0.5525379,83,83,11,121,121,172.5834,0,9999.99,4.21,4.337,2,9,18.1,0,18.10000038,0.22,1476.6056,6/11/19,10:16:36,16.43,0.462,0.22,-6.239,8.82,-104.1,-1.6,-0.5,-3511,83.8,8.18,12.3,
37.23806207,-107.9092097,31:16.9,6/11/19,10,2.363,175.87,9.191786132,0.84,168.3,174.34,4.12,8.3,19.9,0,4.33,4.33,96,56,518.8,16.2,-3.4,D,617.2,0,203.601,2.5,2.38,191,176.39,-107.9090648,37.23623469,0,0,1,N,0.5289162,82,82,11,121,121,172.7517,0,9999.99,4.37,4.497,2,9,18.1,0,18.10000038,0.22,1476.60563,6/11/19,10:16:37,16.43,0.463,0.22,-6.246,8.81,-103.5,-1.1,-1.6,-3647,83.8,8.19,12.5,
37.23805077,-107.9092085,31:17.9,6/11/19,10,2.343,175.58,9.191786132,0.84,167.5,173.53,4.33,9.4,19.8,0,4.34,4.34,96,56,518.7,16.2,-3.4,D,617.1,0,202.34,2.5,2.35,191,176.39,-107.9090648,37.23623469,0,0,1,N,0.5026627,83,83,11,125,125,172.939,0,9999.99,4.37,4.497,2,9,18.1,0,18.10000038,0.22,1476.60577,6/11/19,10:16:38,16.44,0.463,0.22,-6.243,8.84,-105.2,-1.6,-2.6,-3195,83.9,8.19,12.5,
37.2380397,-107.9092075,31:18.9,6/11/19,11,2.424,176.12,9.191786132,0.84,168.6,174.64,3.87,8.6,19.9,0,4.31,4.31,96,56,518.7,16.2,-3.4,D,617.1,0,201.107,2.5,2.39,191,176.4,-107.9090648,37.23623469,0,0,1,N,0.4818655,80,80,11,121,121,173.0875,0,9999.99,4.35,4.477,2,9,18.1,0,18.10000038,0.22,1476.60581,6/11/19,10:16:39,16.43,0.463,0.22,-6.265,8.81,-103.9,-0.3,-5,-1422,83.9,8.19,12.4,
37.23802704,-107.9092067,31:19.9,6/11/19,11,2.626,177.34,9.191786132,0.8,167.4,173.43,4.12,8.6,19.8,0,4.27,4.27,96,56,518.7,16.2,-3.4,D,617.1,0,199.697,2.5,2.37,191,176.39,-107.9090648,37.23623469,0,0,1,N,0.4993588,82,82,11,125,125,172.9627,0,9999.99,4.31,4.437,2,9,18.1,0,18.10000038,0.22,1476.6059,6/11/19,10:16:40,16.44,0.463,0.22,-6.261,8.81,-103.4,-1.3,-3.6,-2722,83.8,8.19,12.5,
37.23801655,-107.909206,31:20.9,6/11/19,10,2.348,176.6,9.191786132,0.84,168.7,174.74,3.6,8.6,19.9,0,4.17,4.17,96,56,518.7,16.2,-3.4,D,617.1,0,198.529,2.5,2.39,191,176.39,-107.9090648,37.23623469,0,0,1,N,0.5044252,79,79,11,120,120,172.9264,0,9999.99,4.21,4.337,2,9,18.1,0,18.10000038,0.22,1476.60584,6/11/19,10:16:41,16.44,0.463,0.22,-6.261,8.85,-106.2,-1.4,-3,-4645,83.9,8.19,12.5,
37.23800558,-107.9092048,31:21.9,6/11/19,10,2.344,176.39,9.191786132,0.84,168.3,174.34,3.8,8.8,19.8,0,4.22,4.22,96,57,518.7,16.2,-3.5,D,616,0,197.305,2.5,2.36,192,176.4,-107.9090648,37.23623469,0,0,1,N,0.4779123,80,80,11,122,122,173.1157,0,9999.99,4.25,4.377,2,9,18.1,0,18.10000038,0.22,1476.60566,6/11/19,10:16:42,16.43,0.463,0.22,-6.251,8.82,-104.4,-2.5,-1.2,-2321,83.9,8.2,12.4,
37.23799487,-107.909204,31:22.9,6/11/19,10,2.364,176.78,9.191786132,0.84,168.7,174.74,4.08,8.3,19.8,0,4.44,4.44,96,57,518.7,16.2,-3.5,D,616,0,196.112,2.5,2.39,192,176.4,-107.9090648,37.23623469,0,0,1,N,0.4783812,81,81,11,120,120,173.1124,0,9999.99,4.47,4.597,2,9,18.1,0,18.10000038,0.22,1476.60582,6/11/19,10:16:43,16.43,0.463,0.22,-6.27,8.8,-103,-2.2,-1.8,-1077,84,8.2,12.3,
37.23798401,-107.9092029,31:23.9,6/11/19,10,2.395,176.39,9.191786132,0.84,168.6,174.64,4.34,8,19.8,0,4.69,4.7,96,57,518.7,16.2,-3.5,D,616,0,194.901,2.5,2.41,192,176.4,-107.9090648,37.23623469,0,0,1,N,0.4517451,82,82,11,123,123,173.3025,0,9999.99,4.73,4.857,2,9,18.1,0,18.10000038,0.22,1476.60582,6/11/19,10:16:44,16.43,0.462,0.22,-6.273,8.78,-102,-2,-7.7,-1113,84,8.21,12.5,
37.23797211,-107.9092017,31:24.9,6/11/19,11,2.436,176.81,9.191786132,0.84,168.5,174.54,4.44,8.1,19.9,0,4.84,4.84,96,58,518.6,16.2,-3.6,D,598.2,0,193.574,2.5,2.44,192,176.41,-107.9090648,37.23623469,0,0,1,N,0.4248843,78,78,11,123,123,173.4942,0,9999.99,4.88,5.007,2,9,18.1,0,18.10000038,0.22,1476.60604,6/11/19,10:16:45,16.43,0.463,0.22,-6.27,8.85,-105.8,-1.7,-4.1,-4119,84,8.21,12.3,
37.2379608,-107.9092008,31:25.9,6/11/19,10,2.447,176.88,9.191786132,0.84,168,174.04,4.21,9.4,19.8,0,4.91,4.91,96,58,518.6,16.2,-3.6,D,598.2,0,192.313,2.5,2.43,192,176.41,-107.9090648,37.23623469,0,0,1,N,0.4233488,82,82,11,125,125,173.5052,0,9999.99,4.95,5.077,2,9,18.1,0,18.10000038,0.22,1476.60595,6/11/19,10:16:46,16.44,0.463,0.22,-6.271,8.81,-103.8,-1.6,-4.2,-2487,84,8.2,12.5,
37.23794876,-107.9091996,31:26.9,6/11/19,10,2.441,176.73,9.191786132,0.84,168.2,174.24,3.89,9.3,19.9,0,4.94,4.94,96,58,518.6,16.2,-3.6,D,598.2,0,190.97,2.5,2.43,192,176.42,-107.9090648,37.23623469,0,0,1,N,0.3980592,80,80,11,125,125,173.6856,0,9999.99,4.98,5.107,2,9,18.1,0,18.10000038,0.22,1476.6058,6/11/19,10:16:47,16.44,0.463,0.22,-6.268,8.79,-102.6,-1.1,-4.2,-875,84,8.2,12.3,
37.23793839,-107.9091986,31:27.9,6/11/19,10,2.51,176.47,9.191786132,0.84,168,174.04,4.91,9.6,19.9,0,4.96,4.96,96,58,518.6,16.2,-3.6,D,598.2,0,189.814,2.5,2.48,192,176.42,-107.9090648,37.23623469,0,0,1,N,0.3798133,83,83,11,122,122,173.8162,0,9999.99,5,5.127,2,9,18.1,0,18.10000038,0.22,1476.60576,6/11/19,10:16:48,16.43,0.463,0.22,-6.26,8.79,-102.4,-1.6,-1.4,-952,83.9,8.2,12.4,
37.2379267,-107.9091974,31:28.9,6/11/19,10,2.401,176.26,9.191786132,0.84,168.8,174.85,4.01,7.59,19.9,0,4.96,4.96,96,58,518.6,16.2,-3.6,D,599.1,0,188.51,2.5,2.49,192,176.43,-107.9090648,37.23623469,0,0,1,N,0.3555509,81,81,11,124,124,173.9894,0,9999.99,5,5.127,2,9,18,0,18.10000038,0.22,1476.60584,6/11/19,10:16:49,16.43,0.462,0.22,-6.267,8.81,-103.8,-1.7,-0.8,-23,83.9,8.19,12.4,
37.23791534,-107.9091964,31:29.9,6/11/19,12,2.477,176.3,9.191786132,0.78,169.2,175.25,4.53,8.4,19.9,0,4.97,4.98,96,58,518.6,16.2,-3.6,D,599.1,0,187.244,2.5,2.5,192,176.43,-107.9090648,37.23623469,0,0,1,N,0.3356614,84,84,11,123,123,174.1318,0,9999.99,5.01,5.137,2,9,18,0,18,0.22,1476.28234,6/11/19,10:16:50,16.44,0.463,0.22,-6.268,8.81,-103.6,-0.9,-4.7,-2022,83.9,8.2,12.5,
37.23790437,-107.9091956,31:30.9,6/11/19,12,2.509,177.56,9.191786132,0.78,168.8,174.85,4.51,9.5,19.9,0,5.01,5.01,96,58,518.6,16.2,-3.6,D,599.1,0,186.022,2.5,2.5,192,176.43,-107.9090648,37.23623469,0,0,1,N,0.3414566,84,84,11,124,124,174.0902,0,9999.99,5.05,5.177,2,9,18,0,18,0.22,1476.28211,6/11/19,10:16:51,16.43,0.463,0.22,-6.26,8.78,-102.1,-1.8,-5.6,-1958,83.9,8.2,12.4,
37.23789253,-107.9091951,31:32.0,6/11/19,12,2.43,178.03,9.191786132,0.78,168.5,174.54,4.43,8.6,19.9,0,5.1,5.1,96,58,518.6,16.2,-3.5,D,603.4,0,184.705,2.5,2.49,192,176.42,-107.9090648,37.23623469,0,0,1,N,0.3734399,84,84,11,124,124,173.8614,0,9999.99,5.14,5.267,2,9,18,0,18,0.22,1476.28207,6/11/19,10:16:52,16.43,0.463,0.22,-6.264,8.78,-101.9,-1,-5.1,-3356,83.9,8.2,12.6,
37.23788203,-107.909194,31:32.9,6/11/19,12,2.272,177.52,9.191786132,0.75,168.8,174.85,3.89,9.2,19.9,0,5.1,5.1,96,58,518.6,16.2,-3.5,D,603.4,0,183.534,2.5,2.49,192,176.43,-107.9090648,37.23623469,0,0,1,N,0.3497934,80,80,11,124,124,174.0307,0,9999.99,5.14,5.267,2,9,18,0,18,0.22,1476.28202,6/11/19,10:16:53,16.44,0.463,0.22,-6.269,8.82,-104.4,-1.5,-5.1,-1004,84,8.2,12.6,
37.23787141,-107.9091931,31:34.0,6/11/19,12,2.466,177.39,9.191786132,0.75,168.4,174.44,3.88,8.3,19.9,0,5.22,5.22,96,58,518.6,16.2,-3.5,D,603.4,0,182.35,2.5,2.48,192,176.43,-107.9090648,37.23623469,0,0,1,N,0.3434183,80,80,11,126,126,174.076,0,9999.99,5.26,5.387,2,9,18,0,18,0.22,1476.28218,6/11/19,10:16:54,16.44,0.463,0.22,-6.266,8.77,-101.6,-2,-1.2,-1477,84.1,8.22,12.6,
37.23785993,-107.9091923,31:34.9,6/11/19,12,2.509,177.57,9.191786132,0.75,169.3,175.35,4.34,9,20,0,5.33,5.33,96,58,518.6,16.2,-3.5,D,603.4,0,181.071,2.5,2.48,192,176.43,-107.9090648,37.23623469,0,0,1,N,0.3519168,82,82,11,124,124,174.0152,0,9999.99,5.37,5.497,2,9,18,0,18,0.22,1476.28211,6/11/19,10:16:55,16.44,0.463,0.22,-6.286,8.8,-103.3,-0.5,-0.1,-2865,84.2,8.22,12.4,
37.23784855,-107.9091912,31:36.0,6/11/19,12,2.348,176.86,9.191786132,0.75,169.6,175.65,4.36,7.88,19.9,0,5.42,5.42,96,58,518.5,16.2,-3.6,D,599,0,179.802,2.5,2.48,192,176.43,-107.9090648,37.23623469,0,0,1,N,0.325097,82,82,11,123,123,174.2072,0,9999.99,5.46,5.587,2,9,18,0,18,0.22,1476.28197,6/11/19,10:16:56,16.43,0.462,0.22,-6.279,8.78,-101.9,-1,-3.7,18,84.1,8.22,12.6,
37.23783743,-107.9091903,31:36.9,6/11/19,12,2.434,176.86,9.191786132,0.78,169.6,175.65,4.27,9,19.9,0,5.52,5.52,96,58,518.5,16.2,-3.6,D,599,0,178.564,2.5,2.45,192,176.43,-107.9090648,37.23623469,0,0,1,N,0.3264741,84,84,11,125,125,174.1973,0,9999.99,5.56,5.687,2,9,18,0,18,0.22,1476.28207,6/11/19,10:16:57,16.43,0.463,0.22,-6.279,8.77,-101.2,-1.1,-6.3,-3351,84.2,8.22,12.6,
37.23782538,-107.9091894,31:38.0,6/11/19,12,2.411,177.52,9.191786132,0.78,169.2,175.25,5.04,8.8,19.9,0,5.57,5.57,96,58,518.5,16.2,-3.6,D,599,0,177.221,2.5,2.45,192,176.43,-107.9090648,37.23623469,0,0,1,N,0.324979,87,87,11,123,123,174.2079,0,9999.99,5.61,5.737,2,9,18,0,18,0.22,1476.28203,6/11/19,10:16:59,16.43,0.463,0.22,-6.265,8.81,-103.7,-1.9,3.6,-941,84.1,8.22,12.4,
37.23781456,-107.9091888,31:39.0,6/11/19,12,2.444,177.79,9.191786132,0.78,169.4,175.45,4.11,8,20,0,5.65,5.65,96,58,518.5,16.2,-3.6,D,599,0,176.017,2.5,2.47,192,176.42,-107.9090648,37.23623469,0,0,1,N,0.3480993,82,82,11,123,123,174.0425,0,9999.99,5.69,5.817,2,9,18,0,18,0.22,1476.28203,6/11/19,10:16:59,16.43,0.463,0.22,-6.265,8.81,-103.7,-1.9,3.6,-941,84.1,8.22,12.4,
37.23780319,-107.9091885,31:40.0,6/11/19,12,2.44,178.58,9.191786132,0.78,170.4,176.46,4.3,8.9,19.9,0,5.78,5.78,96,58,518.5,16.2,-3.6,D,596,0,174.754,2.5,2.49,192,176.41,-107.9090648,37.23623469,0,0,1,N,0.3975451,82,82,11,117,117,173.6891,0,9999.99,5.82,5.947,2,9,18,0,18,0.22,1476.28206,6/11/19,10:17:00,16.44,0.462,0.22,-6.264,8.78,-102.2,-0.9,-4.8,-778,84.1,8.21,12.3,
37.23779094,-107.9091878,31:41.0,6/11/19,12,2.498,178.37,9.191786132,0.78,170.3,176.36,4.64,8.3,19.8,0,5.78,5.78,96,58,518.5,16.2,-3.6,D,596,0,173.39,2.5,2.5,192,176.4,-107.9090648,37.23623469,0,0,1,N,0.4139055,85,85,11,116,116,173.5726,0,9999.99,5.82,5.947,2,9,18,0,18,0.22,1476.28212,6/11/19,10:17:02,16.44,0.464,0.22,-6.283,8.76,-100.7,-1.6,-8.6,-3182,84,8.21,12.4,
37.23777942,-107.9091872,31:42.0,6/11/19,12,2.474,178.58,9.191786132,0.75,169.8,175.86,4.43,7.61,19.9,0,5.85,5.85,96,58,518.5,16.2,-3.6,D,596,0,172.108,2.5,2.52,192,176.39,-107.9090648,37.23623469,0,0,1,N,0.43516,84,84,11,118,118,173.4205,0,9999.99,5.89,6.017,2,9,18,0,18,0.22,1476.28212,6/11/19,10:17:02,16.44,0.464,0.22,-6.283,8.76,-100.7,-1.6,-8.6,-3182,84,8.21,12.4,
37.23776856,-107.9091868,31:43.0,6/11/19,12,2.53,178.56,9.191786132,0.75,170.2,176.26,4.2,8.2,19.9,0,5.91,5.91,96,58,518.4,16.2,-3.6,D,599,0,170.901,2.5,2.47,192,176.38,-107.9090648,37.23623469,0,0,1,N,0.4734267,85,85,11,115,115,173.1475,0,9999.99,5.95,6.077,2,9,18,0,18,0.22,1476.28212,6/11/19,10:17:04,16.44,0.463,0.22,-6.275,8.8,-103.2,-0.5,-1.2,-2660,84,8.2,12.5,
37.23775708,-107.909186,31:44.0,6/11/19,12,2.458,178.22,9.191786132,0.75,170.8,176.87,4.5,8.1,19.9,0,6.04,6.04,96,58,518.4,16.2,-3.6,D,599,0,169.622,2.5,2.45,192,176.37,-107.9090648,37.23623469,0,0,1,N,0.4758193,84,84,11,112,112,173.1305,0,9999.99,6.08,6.207,2,9,18,0,18,0.22,1476.28202,6/11/19,10:17:05,16.44,0.463,0.22,-6.279,8.77,-101.5,-1.8,-2.2,-1054,84,8.2,12.5,
37.23774537,-107.9091852,31:45.0,6/11/19,12,2.492,178.69,9.191786132,0.75,170.6,176.67,4.61,8.5,19.9,0,6.09,6.09,96,58,518.4,16.2,-3.6,D,599,0,168.319,2.5,2.46,192,176.37,-107.9090648,37.23623469,0,0,1,N,0.4908527,85,85,11,112,112,173.023,0,9999.99,6.13,6.257,2,9,18,0,18,0.22,1476.28202,6/11/19,10:17:05,16.44,0.463,0.22,-6.279,8.77,-101.5,-1.8,-2.2,-1054,84,8.2,12.5,
37.23773279,-107.9091844,31:46.0,6/11/19,12,2.604,179.16,9.191786132,0.75,169.1,175.15,4.27,9.1,19.9,0,6.09,6.09,96,58,518.4,16.2,-3.6,D,599,0,166.919,2.5,2.48,192,176.36,-107.9090648,37.23623469,0,0,1,N,0.5097955,83,83,11,118,118,172.8881,0,9999.99,6.13,6.257,2,9,18,0,18,0.22,1476.28203,6/11/19,10:17:06,16.44,0.462,0.22,-6.275,8.76,-100.5,-0.6,-3,-3275,84,8.2,12.5,
37.2377214,-107.9091841,31:47.0,6/11/19,12,2.414,179.11,9.191786132,0.75,169.2,175.25,4.56,8.6,19.9,0,6.15,6.15,96,59,518.4,16.2,-3.6,D,593.7,0,165.653,2.5,2.5,192,176.34,-107.9090648,37.23623469,0,0,1,N,0.5594588,84,84,11,116,116,172.5339,0,9999.99,6.19,6.317,2,9,18,0,18,0.22,1476.28197,6/11/19,10:17:08,16.45,0.462,0.22,-6.27,8.74,-99.5,-1.3,-3.5,-1809,84,8.2,12.5,
37.23771094,-107.9091835,31:48.0,6/11/19,11,2.427,178.67,9.191786132,0.78,169.1,175.15,3.75,8,19.9,0,6.21,6.21,96,59,518.4,16.2,-3.6,D,593.7,0,164.489,2.5,2.51,192,176.34,-107.9090648,37.23623469,0,0,1,N,0.5689654,79,79,11,116,116,172.4662,0,9999.99,6.25,6.377,2,9,18,0,18,0.22,1476.28197,6/11/19,10:17:08,16.45,0.462,0.22,-6.27,8.74,-99.5,-1.3,-3.5,-1809,84,8.2,12.5,
37.23769887,-107.9091824,31:49.0,6/11/19,11,2.375,177.8,9.191786132,0.78,169.1,175.15,3.74,8.1,19.9,0,6.3,6.3,96,59,518.4,16.2,-3.6,D,593.7,0,163.143,2.5,2.46,192,176.34,-107.9090648,37.23623469,0,0,1,N,0.5557398,79,79,11,117,117,172.5604,0,9999.99,6.33,6.457,2,9,18,0,18,0.22,1476.282,6/11/19,10:17:09,16.45,0.463,0.22,-6.277,8.8,-103.1,-0.3,-4,-2159,84,8.2,12.4,
37.23768832,-107.9091818,31:50.0,6/11/19,11,2.412,177.6,9.191786132,0.78,169.3,175.35,3.73,8.4,19.9,0,6.35,6.35,96,59,518.4,16.2,-3.6,D,594,0,161.969,2.5,2.46,192,176.33,-107.9090648,37.23623469,0,0,1,N,0.5773715,79,79,11,115,115,172.4062,0,9999.99,6.38,6.507,2,9,18,0,18,0.22,1476.28196,6/11/19,10:17:11,16.45,0.463,0.22,-6.248,8.75,-100.1,-0.9,-5.1,-2366,84,8.2,12.4,
37.23767699,-107.9091812,31:51.1,6/11/19,11,2.389,178.01,9.191786132,0.78,169.1,175.15,3.56,8,19.9,0,6.39,6.39,96,59,518.4,16.2,-3.6,D,594,0,160.708,2.5,2.46,192,176.32,-107.9090648,37.23623469,0,0,1,N,0.6023034,78,78,11,115,115,172.2287,0,9999.99,6.42,6.547,2,9,18,0,18,0.22,1476.28196,6/11/19,10:17:11,16.45,0.463,0.22,-6.248,8.75,-100.1,-0.9,-5.1,-2366,84,8.2,12.4,
37.23766535,-107.9091808,31:52.1,6/11/19,11,2.459,178.94,9.191786132,0.78,168.4,174.44,3.87,9.3,19.9,0,6.45,6.45,96,59,518.4,16.2,-3.6,D,594,0,159.415,2.5,2.46,192,176.31,-107.9090648,37.23623469,0,0,1,N,0.6423502,79,79,11,116,116,171.9436,0,9999.99,6.48,6.607,2,9,18,0,18,0.22,1476.28197,6/11/19,10:17:12,16.45,0.463,0.22,-6.251,8.74,-99.8,-0.7,-3.6,-1873,84,8.2,12.3,
37.23765309,-107.9091805,31:53.1,6/11/19,11,2.484,178.9,9.191786132,0.78,168.3,174.34,4.18,9.4,20,0,6.51,6.51,96,59,518.4,16.2,-3.6,D,594,0,158.052,2.5,2.46,192,176.28,-107.9090648,37.23623469,0,0,1,N,0.7014555,82,82,11,116,116,171.5231,0,9999.99,6.55,6.677,2,9,18,0,18,0.22,1476.282,6/11/19,10:17:14,16.45,0.463,0.22,-6.262,8.73,-99.2,-0.7,-1.8,-2120,84,8.2,12.3,
37.237643,-107.9091801,31:54.1,6/11/19,11,2.44,178.33,9.191786132,0.78,168.4,174.44,3.04,8.4,19.9,0,6.59,6.59,96,59,518.3,16.2,-3.6,D,592.6,0,156.93,2.5,2.45,192,176.27,-107.9090648,37.23623469,0,0,1,N,0.7297747,75,75,11,115,115,171.3221,0,9999.99,6.62,6.747,2,9,18,0,18,0.22,1476.28202,6/11/19,10:17:15,16.45,0.463,0.22,-6.264,8.77,-101.6,-1.8,1.9,-600,84,8.2,12.5,
37.23763222,-107.9091791,31:55.1,6/11/19,11,2.478,176.62,9.191786132,0.78,167.6,173.63,3.73,7.36,19.9,0,6.65,6.65,96,59,518.3,16.2,-3.6,D,592.6,0,155.728,2.5,2.47,192,176.28,-107.9090648,37.23623469,0,0,1,N,0.7094937,79,79,11,116,116,171.4661,0,9999.99,6.68,6.807,2,9,18,0,18,0.22,1476.28202,6/11/19,10:17:15,16.45,0.463,0.22,-6.264,8.77,-101.6,-1.8,1.9,-600,84,8.2,12.5,
37.2376196,-107.9091779,31:56.1,6/11/19,11,2.376,177.03,9.191786132,0.78,167.5,173.53,3.96,8.1,19.9,0,6.7,6.7,96,59,518.3,16.2,-3.6,D,592.6,0,154.321,2.5,2.46,192,176.28,-107.9090648,37.23623469,0,0,1,N,0.6893513,84,84,11,119,119,171.6091,0,9999.99,6.74,6.867,2,9,18,0,18,0.22,1476.28201,6/11/19,10:17:16,16.45,0.463,0.22,-6.275,8.76,-100.5,-1.2,-1,-1181,84,8.2,12.5,
37.23760742,-107.9091766,31:57.1,6/11/19,11,2.487,177.12,9.191786132,0.78,166.7,172.73,3.84,8.8,19.9,0,6.79,6.79,96,59,518.3,16.2,-3.6,D,592.7,0,152.963,2.5,2.46,192,176.29,-107.9090648,37.23623469,0,0,1,N,0.6667783,80,80,11,123,123,171.7698,0,9999.99,6.82,6.947,2,9,18,0,18,0.22,1476.28206,6/11/19,10:17:18,16.45,0.463,0.22,-6.266,8.73,-99.3,-1.8,-1.2,-1682,84,8.2,12.4,
37.23759573,-107.9091756,31:58.1,6/11/19,11,2.483,176.37,9.191786132,0.78,165.9,171.92,3.83,9.1,19.9,0,6.84,6.84,96,59,518.3,16.2,-3.6,D,592.7,0,151.659,2.5,2.48,192,176.29,-107.9090648,37.23623469,0,0,1,N,0.6537948,80,80,11,127,127,171.8619,0,9999.99,6.88,7.007,2,9,17.9,0,18,0.22,1476.28206,6/11/19,10:17:18,16.45,0.463,0.22,-6.266,8.73,-99.3,-1.8,-1.2,-1682,84,8.2,12.4,
37.23758403,-107.9091744,31:59.2,6/11/19,11,2.472,175.91,9.191786132,0.78,166.6,172.63,3.76,8,19.9,0,6.9,6.9,96,59,518.3,16.2,-3.6,D,592.7,0,150.355,2.5,2.46,192,176.3,-107.9090648,37.23623469,0,0,1,N,0.624992,80,80,11,125,125,172.0669,0,9999.99,6.93,7.057,2,9,17.9,0,17.89999962,0.22,1475.95754,6/11/19,10:17:19,16.45,0.463,0.22,-6.283,8.72,-98.3,-0.3,-3.8,209,84,8.2,12.5,
37.23757311,-107.9091733,32:00.2,6/11/19,11,2.458,175.66,9.191786132,0.78,166.1,172.12,4.51,8.4,19.9,0,6.95,6.95,96,59,518.3,16.2,-3.6,D,592.7,0,149.136,2.5,2.46,192,176.31,-107.9090648,37.23623469,0,0,1,N,0.6085246,79,79,11,127,127,172.1841,0,9999.99,6.98,7.107,2,9,18,0,17.89999962,0.22,1475.95766,6/11/19,10:17:21,16.45,0.463,0.22,-6.264,8.76,-101,-2.4,-4.4,-2886,84,8.2,12.3,
37.23756143,-107.9091723,32:01.2,6/11/19,11,2.524,175.89,9.191786132,0.78,166.5,172.53,4.13,8,19.9,0,7,7,96,59,518.2,16.2,-3.6,D,592,0,147.835,2.5,2.47,192,176.31,-107.9090648,37.23623469,0,0,1,N,0.5907297,82,82,11,126,126,172.3109,0,9999.99,7.04,7.167,2,9,17.9,0,17.89999962,0.22,1475.95766,6/11/19,10:17:21,16.45,0.463,0.22,-6.264,8.76,-101,-2.4,-4.4,-2886,84,8.2,12.3,
37.23755026,-107.9091712,32:02.2,6/11/19,11,2.548,175.5,9.191786132,0.78,166.8,172.83,3.85,8.5,20,0,7.06,7.06,96,59,518.2,16.2,-3.6,D,592,0,146.589,2.5,2.46,192,176.31,-107.9090648,37.23623469,0,0,1,N,0.5715308,80,80,11,125,125,172.4477,0,9999.99,7.09,7.217,2,9,17.9,0,17.89999962,0.22,1475.95758,6/11/19,10:17:22,16.45,0.463,0.22,-6.269,8.74,-99.8,-1,-6.7,-1037,84,8.2,12.5,
37.23753806,-107.90917,32:03.2,6/11/19,11,2.48,175.47,9.191786132,0.78,167.2,173.23,3.94,8.8,20,0,7.1,7.1,96,59,518.2,16.2,-3.6,D,592,0,145.228,2.5,2.46,192,176.32,-107.9090648,37.23623469,0,0,1,N,0.5442767,81,81,11,125,125,172.642,0,9999.99,7.13,7.257,2,9,18,0,17.89999962,0.22,1475.95757,6/11/19,10:17:23,16.45,0.463,0.22,-6.275,8.73,-98.9,-0.1,-1.4,-3493,84,8.2,12.4,
37.23752727,-107.9091689,32:04.2,6/11/19,11,2.43,175.97,9.191786132,0.78,166.5,172.53,4.95,7.31,20,0,7.14,7.15,96,58,518.2,16.2,-3.6,D,595.7,0,144.024,2.5,2.48,192,176.33,-107.9090648,37.23623469,0,0,1,N,0.5208412,89,89,11,127,127,172.8092,0,9999.99,7.19,7.317,2,9,17.9,0,18,0.22,1476.28217,6/11/19,10:17:25,16.44,0.463,0.22,-6.275,8.71,-98.1,-1,-0.6,-1743,84.1,8.21,12.4,
37.23751588,-107.9091681,32:05.2,6/11/19,11,2.445,176.45,9.191786132,0.78,165.8,171.82,4.72,9.9,20,0,7.24,7.25,96,58,518.2,16.2,-3.6,D,595.7,0,142.756,2.5,2.46,192,176.33,-107.9090648,37.23623469,0,0,1,N,0.5305298,82,82,11,122,122,172.7399,0,9999.99,7.28,7.407,2,9,17.9,0,18,0.22,1476.28217,6/11/19,10:17:25,16.44,0.463,0.22,-6.275,8.71,-98.1,-1,-0.6,-1743,84.1,8.21,12.4,
37.23750564,-107.909167,32:06.2,6/11/19,11,2.506,176.02,9.191786132,0.78,166.6,172.63,4.42,7.78,19.9,0,7.29,7.29,96,58,518.2,16.2,-3.6,D,595.7,0,141.613,2.5,2.48,192,176.34,-107.9090648,37.23623469,0,0,1,N,0.5042067,84,84,11,128,128,172.9276,0,9999.99,7.33,7.457,2,9,17.9,0,17.89999962,0.22,1475.9577,6/11/19,10:17:26,16.44,0.463,0.22,-6.273,8.72,-98.4,-1.7,-3.3,-1973,84.1,8.21,12.5,
37.23749359,-107.9091658,32:07.2,6/11/19,12,2.486,176.56,9.191786132,0.78,166.1,172.12,5.21,9.2,20,0,7.35,7.35,96,58,518.2,16.2,-3.6,D,595.7,0,140.27,2.5,2.47,192,176.34,-107.9090648,37.23623469,0,0,1,N,0.4799387,88,88,11,131,131,173.1009,0,9999.99,7.39,7.517,2,9,17.9,0,17.89999962,0.22,1475.95783,6/11/19,10:17:28,16.45,0.463,0.22,-6.282,8.74,-99.8,-0.7,-4.4,-3165,84,8.21,12.6,
37.23748175,-107.9091648,32:08.2,6/11/19,12,2.497,175.99,9.191786132,0.78,166.3,172.32,4.97,8.1,19.9,0,7.43,7.43,96,58,518.1,16.2,-3.6,D,597.3,0,138.949,2.5,2.46,192,176.35,-107.9090648,37.23623469,0,0,1,N,0.4613479,83,83,11,129,129,173.2335,0,9999.99,7.47,7.597,2,9,17.9,0,17.89999962,0.22,1475.95783,6/11/19,10:17:28,16.45,0.463,0.22,-6.282,8.74,-99.8,-0.7,-4.4,-3165,84,8.21,12.6,
37.23747026,-107.9091637,32:09.2,6/11/19,11,2.493,175.8,9.191786132,0.78,167,173.03,5.08,9.3,19.9,0,7.5,7.5,96,58,518.1,16.2,-3.6,D,597.3,0,137.669,2.5,2.48,192,176.35,-107.9090648,37.23623469,0,0,1,N,0.4431647,87,87,11,123,123,173.3634,0,9999.99,7.54,7.667,2,9,17.9,0,17.89999962,0.22,1475.9577,6/11/19,10:17:29,16.44,0.463,0.22,-6.292,8.73,-98.9,-1.4,0.2,-2773,84.1,8.21,12.5,
37.23745927,-107.9091632,32:10.2,6/11/19,12,2.51,176.88,9.191786132,0.78,167.2,173.23,5.39,8.4,19.9,0,7.6,7.6,96,58,518.1,16.2,-3.6,D,597.3,0,136.446,2.5,2.44,192,176.34,-107.9090648,37.23623469,0,0,1,N,0.4705448,89,89,11,127,127,173.1679,0,9999.99,7.64,7.767,2,9,17.9,0,17.89999962,0.22,1475.95762,6/11/19,10:17:31,16.44,0.463,0.22,-6.29,8.7,-97.2,-0.9,-1.1,-3213,84.1,8.21,12.4,
37.23744695,-107.9091622,32:11.2,6/11/19,12,2.443,176.96,9.191786132,0.78,168.3,174.34,4.07,8.2,19.9,0,7.61,7.61,96,58,518.1,16.2,-3.5,D,600.1,0,135.074,2.5,2.45,192,176.34,-107.9090648,37.23623469,0,0,1,N,0.4677614,81,81,11,126,126,173.1877,0,9999.99,7.65,7.777,2,9,17.9,0,17.89999962,0.22,1475.95765,6/11/19,10:17:32,16.44,0.463,0.22,-6.297,8.71,-98,-1.4,-3.5,-3178,84.1,8.21,12.6,
37.23743557,-107.9091616,32:12.2,6/11/19,11,2.471,177.15,9.191786132,0.78,168.8,174.85,4.41,8.1,19.9,0,7.64,7.65,96,58,518.1,16.2,-3.5,D,600.1,0,133.808,2.5,2.46,192,176.33,-107.9090648,37.23623469,0,0,1,N,0.4922112,83,83,11,120,120,173.0134,0,9999.99,7.68,7.807,2,9,17.9,0,17.89999962,0.22,1475.95756,6/11/19,10:17:33,16.44,0.463,0.22,-6.29,8.77,-101.1,-1.3,-6.5,-3484,84.1,8.21,12.6,
37.23742263,-107.9091606,32:13.2,6/11/19,11,2.419,177.22,9.191786132,0.78,168.2,174.24,3.86,8.1,19.9,0,7.7,7.71,96,58,518.1,16.2,-3.5,D,600.1,0,132.365,2.5,2.48,192,176.33,-107.9090648,37.23623469,0,0,1,N,0.4855736,80,80,11,122,122,173.0606,0,9999.99,7.74,7.867,2,9,17.9,0,17.89999962,0.22,1475.95756,6/11/19,10:17:33,16.44,0.463,0.22,-6.29,8.77,-101.1,-1.3,-6.5,-3484,84.1,8.21,12.6,
37.23741198,-107.9091595,32:14.2,6/11/19,11,2.453,176.49,9.191786132,0.78,168.4,174.44,4.27,9.4,20,0,7.71,7.71,96,58,518.1,16.2,-3.5,D,600.1,0,131.178,2.5,2.48,192,176.33,-107.9090648,37.23623469,0,0,1,N,0.467549,84,84,11,123,123,173.1893,0,9999.99,7.75,7.877,2,9,17.9,0,17.89999962,0.22,1475.95758,6/11/19,10:17:34,16.44,0.463,0.22,-6.279,8.76,-100.5,-0.1,-0.8,-1509,84,8.21,12.5,
37.23740005,-107.909159,32:15.3,6/11/19,12,2.49,177.4,9.191786132,0.78,166.4,172.42,4.63,8.2,20,0,7.77,7.77,96,58,518,16.2,-3.6,D,597.3,0,129.851,2.5,2.51,192,176.32,-107.9090648,37.23623469,0,0,1,N,0.5012971,85,85,11,129,129,172.9486,0,9999.99,7.81,7.937,2,9,17.9,0,17.89999962,0.22,1475.95751,6/11/19,10:17:36,16.43,0.463,0.22,-6.288,8.72,-98.7,-0.7,-2.9,16,84,8.21,12.6,
37.23738916,-107.9091582,32:16.2,6/11/19,12,2.43,177.42,9.191786132,0.78,168.2,174.24,4.3,8.5,20,0,7.81,7.82,96,58,518,16.2,-3.6,D,597.3,0,128.639,2.5,2.52,192,176.31,-107.9090648,37.23623469,0,0,1,N,0.5061199,83,83,11,122,122,172.914,0,9999.99,7.85,7.977,2,9,17.9,0,17.89999962,0.22,1475.95751,6/11/19,10:17:36,16.43,0.463,0.22,-6.288,8.72,-98.7,-0.7,-2.9,16,84,8.21,12.6,
37.23737808,-107.9091577,32:17.3,6/11/19,12,2.627,177.43,9.191786132,0.75,167.8,173.84,5.34,8.1,20,0,7.81,7.82,96,58,518,16.2,-3.6,D,597.3,0,127.406,2.5,2.5,192,176.3,-107.9090648,37.23623469,0,0,1,N,0.5325172,89,89,11,123,123,172.7259,0,9999.99,7.86,7.987,2,9,17.9,0,17.89999962,0.22,1475.95753,6/11/19,10:17:37,16.43,0.463,0.22,-6.288,8.71,-98.1,-0.2,-4.4,-6385,84,8.21,12.5,
37.23736523,-107.9091566,32:18.3,6/11/19,12,2.51,176.94,9.191786132,0.75,167.2,173.23,4.39,8.7,20,0,7.8,7.81,96,58,518,16.2,-3.6,D,598.3,0,125.974,2.5,2.48,192,176.3,-107.9090648,37.23623469,0,0,1,N,0.5262467,83,83,11,125,125,172.7704,0,9999.99,7.85,7.977,2,9,17.9,0,17.89999962,0.22,1475.95762,6/11/19,10:17:39,16.43,0.463,0.22,-6.297,8.69,-97,-0.7,0.8,-1976,84,8.2,12.4,
37.23735381,-107.9091556,32:19.3,6/11/19,12,2.479,176.53,9.191786132,0.75,166.6,172.63,5.38,8.6,20,0,7.82,7.82,96,58,518,16.2,-3.6,D,598.3,0,124.701,2.5,2.46,192,176.31,-107.9090648,37.23623469,0,0,1,N,0.5102893,89,89,11,128,128,172.8843,0,9999.99,7.86,7.987,2,9,17.9,0,17.89999962,0.22,1475.95762,6/11/19,10:17:39,16.43,0.463,0.22,-6.297,8.69,-97,-0.7,0.8,-1976,84,8.2,12.4,
37.23734214,-107.9091546,32:20.3,6/11/19,12,2.514,176.7,9.191786132,0.75,167.7,173.73,3.54,8.9,19.9,0,7.82,7.82,96,58,518,16.2,-3.6,D,598.3,0,123.4,2.5,2.48,192,176.31,-107.9090648,37.23623469,0,0,1,N,0.4971981,78,78,11,124,124,172.9777,0,9999.99,7.86,7.987,2,9,17.9,0,17.89999962,0.22,1475.95775,6/11/19,10:17:40,16.43,0.463,0.22,-6.29,8.7,-97.5,0.1,-7,-1162,84,8.21,12.5,
37.23733007,-107.9091532,32:21.3,6/11/19,12,2.517,176.25,9.191786132,0.75,166.5,172.53,4.79,8.3,19.9,0,7.81,7.81,96,58,518,16.2,-3.6,D,598.3,0,122.052,2.5,2.48,192,176.32,-107.9090648,37.23623469,0,0,1,N,0.4570303,86,86,11,130,130,173.2645,0,9999.99,7.85,7.977,2,9,17.9,0,17.89999962,0.22,1475.95774,6/11/19,10:17:42,16.43,0.463,0.22,-6.298,8.74,-99.5,0.1,1.2,-1415,84.1,8.21,12.5,
37.23731799,-107.909152,32:22.4,6/11/19,12,2.482,175.89,9.191786132,0.75,166.5,172.53,4.95,8.6,19.9,0,7.77,7.77,96,58,517.9,16.2,-3.6,D,598.4,0,120.705,2.5,2.49,192,176.33,-107.9090648,37.23623469,0,0,1,N,0.4394735,87,87,11,130,130,173.3897,0,9999.99,7.81,7.937,2,9,17.9,0,17.89999962,0.22,1475.95774,6/11/19,10:17:42,16.43,0.463,0.22,-6.298,8.74,-99.5,0.1,1.2,-1415,84.1,8.21,12.5,
37.23730686,-107.9091512,32:23.4,6/11/19,12,2.473,176.32,9.191786132,0.75,168.2,174.24,3.93,7.78,19.9,0,7.77,7.77,96,58,517.9,16.2,-3.6,D,598.4,0,119.466,2.5,2.47,192,176.33,-107.9090648,37.23623469,0,0,1,N,0.4381064,81,81,11,124,124,173.3995,0,9999.99,7.81,7.937,2,9,17.9,0,17.89999962,0.22,1475.95756,6/11/19,10:17:43,16.43,0.463,0.22,-6.294,8.72,-98.3,0.3,-1.1,-2058,84.1,8.21,12.4,
37.23729642,-107.9091504,32:24.4,6/11/19,12,2.454,176.36,9.191786132,0.75,167.2,173.23,4.18,8.3,19.9,0,7.78,7.78,96,58,517.9,16.2,-3.6,D,598.4,0,118.302,2.5,2.48,192,176.33,-107.9090648,37.23623469,0,0,1,N,0.4365654,85,85,11,130,130,173.4105,0,9999.99,7.82,7.947,2,9,17.9,0,17.89999962,0.22,1475.95743,6/11/19,10:17:45,16.43,0.463,0.22,-6.304,8.71,-97.7,-1,-4.6,-2951,84.1,8.21,12.4,
37.23728396,-107.909149,32:25.4,6/11/19,11,2.414,175.86,9.191786132,0.79,167.3,173.33,4.93,9.3,19.9,0,7.81,7.81,96,58,517.9,16.2,-3.6,D,598.4,0,116.912,2.5,2.49,192,176.34,-107.9090648,37.23623469,0,0,1,N,0.4005223,87,87,11,128,128,173.668,0,9999.99,7.85,7.977,2,9,17.9,0,17.89999962,0.22,1475.95743,6/11/19,10:17:45,16.43,0.463,0.22,-6.304,8.71,-97.7,-1,-4.6,-2951,84.1,8.21,12.4,
37.23727281,-107.9091475,32:26.4,6/11/19,11,2.436,176.01,9.191786132,0.79,168,174.04,4.37,8.8,19.9,0,7.82,7.82,96,58,517.9,16.2,-3.6,D,598.2,0,115.666,2.5,2.49,192,176.37,-107.9090648,37.23623469,0,0,1,N,0.3420612,83,83,11,127,127,174.0857,0,9999.99,7.86,7.987,2,9,17.9,0,17.89999962,0.22,1475.95746,6/11/19,10:17:46,16.42,0.463,0.22,-6.287,8.69,-96.7,-0.9,-0.8,-1925,84,8.21,12.5,
37.23726148,-107.9091464,32:27.4,6/11/19,11,2.498,176.84,9.191786132,0.79,167.7,173.73,4.64,8.4,19.9,0,7.84,7.84,96,58,517.9,16.2,-3.6,D,598.2,0,114.403,2.5,2.49,192,176.38,-107.9090648,37.23623469,0,0,1,N,0.3151525,85,85,11,129,129,174.2782,0,9999.99,7.88,8.007,2,9,17.9,0,17.89999962,0.22,1475.95754,6/11/19,10:17:47,16.43,0.463,0.22,-6.288,8.69,-96.7,-0.2,0.9,-1702,84,8.21,12.4,
37.23724914,-107.9091456,32:28.4,6/11/19,11,2.571,177.36,9.191786132,0.79,168.6,174.64,4.24,9.2,19.9,0,7.86,7.86,96,58,517.9,16.2,-3.6,D,598.2,0,113.029,2.5,2.46,192,176.37,-107.9090648,37.23623469,0,0,1,N,0.3288434,82,82,11,125,125,174.1802,0,9999.99,7.9,8.027,2,9,17.9,0,17.89999962,0.22,1475.95779,6/11/19,10:17:49,16.43,0.463,0.22,-6.295,8.74,-99.8,-0.3,-2.9,-5282,84.1,8.22,12.4,
37.23723767,-107.9091444,32:29.4,6/11/19,11,2.668,177.45,9.191786132,0.79,169.1,175.15,3.98,7.53,20,0,7.88,7.88,96,58,517.9,16.2,-3.5,D,599.9,0,111.75,2.5,2.49,192,176.38,-107.9090648,37.23623469,0,0,1,N,0.3025408,81,81,11,124,124,174.3683,0,9999.99,7.93,8.057,2,9,17.9,0,17.89999962,0.22,1475.95779,6/11/19,10:17:49,16.43,0.463,0.22,-6.295,8.74,-99.8,-0.3,-2.9,-5282,84.1,8.22,12.4,
37.23722631,-107.9091436,32:30.4,6/11/19,11,2.542,177.72,9.191786132,0.79,168.2,174.24,4.68,8.3,19.9,0,7.91,7.91,96,58,517.9,16.2,-3.5,D,599.9,0,110.484,2.5,2.49,192,176.38,-107.9090648,37.23623469,0,0,1,N,0.3062268,85,85,11,127,127,174.3419,0,9999.99,7.95,8.077,2,9,17.9,0,17.89999962,0.22,1475.95747,6/11/19,10:17:50,16.43,0.463,0.22,-6.3,8.73,-98.9,-0.5,-1.3,-2294,84.1,8.22,12.4,
37.23721461,-107.9091428,32:31.4,6/11/19,12,2.444,177.36,9.191786132,0.75,168.7,174.74,4.75,8.6,19.9,0,7.94,7.94,96,58,517.9,16.2,-3.5,D,599.9,0,109.181,2.5,2.49,192,176.38,-107.9090648,37.23623469,0,0,1,N,0.3081195,85,85,11,125,125,174.3285,0,9999.99,7.98,8.107,2,9,17.9,0,17.89999962,0.22,1475.9576,6/11/19,10:17:52,16.42,0.463,0.22,-6.298,8.7,-97.5,-1.4,0.5,-3924,84.1,8.22,12.3,
37.23720327,-107.9091421,32:32.4,6/11/19,12,2.519,177.65,9.191786132,0.74,170.1,176.16,3.9,8.4,19.9,0,7.98,7.98,96,58,517.9,16.2,-3.5,D,599.9,0,107.919,2.5,2.49,192,176.36,-107.9090648,37.23623469,0,0,1,N,0.3286555,79,79,11,123,123,174.1817,0,9999.99,8.02,8.147,2,9,17.9,0,17.89999962,0.22,1475.9576,6/11/19,10:17:52,16.42,0.463,0.22,-6.298,8.7,-97.5,-1.4,0.5,-3924,84.1,8.22,12.3,
37.23719141,-107.9091413,32:33.4,6/11/19,12,2.563,178.67,9.191786132,0.74,168.2,174.24,5.31,8,19.9,0,7.99,7.99,96,58,517.8,16.2,-3.6,D,594.4,0,106.598,2.5,2.52,192,176.35,-107.9090648,37.23623469,0,0,1,N,0.3449704,84,84,11,129,129,174.065,0,9999.99,8.03,8.157,2,9,17.9,0,17.89999962,0.22,1475.95745,6/11/19,10:17:53,16.42,0.463,0.22,-6.305,8.7,-97.2,-0.5,-3.9,-3144,84.1,8.22,12.4,
37.23717936,-107.9091408,32:34.4,6/11/19,11,2.516,177.73,9.191786132,0.82,168.6,174.64,4.35,9,19.9,0,8.03,8.03,96,58,517.8,16.2,-3.6,D,594.4,0,105.259,2.5,2.5,192,176.33,-107.9090648,37.23623469,0,0,1,N,0.3746765,83,83,11,124,124,173.8526,0,9999.99,8.07,8.197,2,9,17.9,0,17.89999962,0.22,1475.95767,6/11/19,10:17:55,16.41,0.463,0.22,-6.288,8.68,-96.3,-0.8,-5.1,-3659,84.1,8.22,12.5,
37.23716785,-107.9091402,32:35.4,6/11/19,11,2.454,177.07,9.191786132,0.82,169.4,175.45,4.02,9.2,19.9,0,8.05,8.05,96,58,517.8,16.2,-3.6,D,594.4,0,103.978,2.5,2.51,192,176.32,-107.9090648,37.23623469,0,0,1,N,0.3989327,81,81,11,120,120,173.6794,0,9999.99,8.09,8.217,2,9,17.9,0,17.89999962,0.22,1475.95767,6/11/19,10:17:55,16.41,0.463,0.22,-6.288,8.68,-96.3,-0.8,-5.1,-3659,84.1,8.22,12.5,
37.23715665,-107.9091398,32:36.4,6/11/19,12,2.46,177.14,9.191786132,0.82,169.3,175.35,4.69,7.84,19.9,0,8.08,8.08,96,58,517.8,16.2,-3.5,D,601.5,0,102.734,2.5,2.53,192,176.29,-107.9090648,37.23623469,0,0,1,N,0.4400145,82,82,11,119,119,173.3858,0,9999.99,8.12,8.247,2,9,17.9,0,17.89999962,0.22,1475.95747,6/11/19,10:17:56,16.4,0.463,0.22,-6.284,8.7,-97.1,-0.1,-2.3,-4160,84.1,8.22,12.5,
37.23714507,-107.9091392,32:37.4,6/11/19,12,2.48,177.86,9.191786132,0.82,168.7,174.74,4.57,8.9,19.9,0,8.11,8.11,96,58,517.8,16.2,-3.5,D,601.5,0,101.445,2.5,2.56,192,176.27,-107.9090648,37.23623469,0,0,1,N,0.4675101,89,89,11,123,123,173.1896,0,9999.99,8.15,8.276999,2,9,17.9,0,17.89999962,0.22,1475.95756,6/11/19,10:17:57,16.41,0.463,0.22,-6.295,8.74,-99.8,-0.8,-3.7,-3228,84.1,8.22,12.5,
37.23713343,-107.9091389,32:38.4,6/11/19,12,2.516,178.01,9.191786132,0.82,169.4,175.45,4.42,8.2,19.9,0,8.14,8.14,96,58,517.8,16.2,-3.5,D,601.5,0,100.151,2.5,2.51,192,176.25,-107.9090648,37.23623469,0,0,1,N,0.511569,85,85,11,120,120,172.8752,0,9999.99,8.18,8.307,2,9,17.9,0,17.89999962,0.22,1475.95751,6/11/19,10:17:58,16.41,0.463,0.22,-6.288,8.73,-98.8,-0.5,-2.2,-2159,84.1,8.22,12.5,
37.23712119,-107.9091379,32:39.4,6/11/19,11,2.44,177.54,9.191786132,0.78,168.9,174.95,4.22,7.86,19.9,0,8.15,8.15,96,58,517.8,16.2,-3.5,D,601.5,0,98.787,2.5,2.49,192,176.24,-107.9090648,37.23623469,0,0,1,N,0.5091902,82,82,11,119,119,172.8922,0,9999.99,8.2,8.327,2,9,17.9,0,17.89999962,0.22,1475.95753,6/11/19,10:18:00,16.41,0.463,0.22,-6.29,8.7,-97.5,-0.8,-4.2,-1699,84,8.21,12.5,
37.23711077,-107.9091376,32:40.5,6/11/19,11,2.492,177.45,9.191786132,0.78,167.5,173.53,5.34,8.8,19.9,0,8.19,8.19,96,58,517.7,16.2,-3.5,D,600.6,0,97.629,2.5,2.5,192,176.22,-107.9090648,37.23623469,0,0,1,N,0.5507633,86,86,11,122,122,172.5957,0,9999.99,8.23,8.356999,2,9,17.8,0,17.89999962,0.22,1475.95753,6/11/19,10:18:00,16.41,0.463,0.22,-6.29,8.7,-97.5,-0.8,-4.2,-1699,84,8.21,12.5,
37.23709908,-107.909137,32:41.5,6/11/19,11,2.463,177.49,9.191786132,0.78,168.5,174.54,3.39,8.5,19.9,0,8.23,8.23,96,58,517.7,16.2,-3.5,D,600.6,0,96.328,2.5,2.49,192,176.2,-107.9090648,37.23623469,0,0,1,N,0.5744089,77,77,11,119,119,172.4273,0,9999.99,8.27,8.397,2,9,17.9,0,17.79999924,0.22,1475.6321,6/11/19,10:18:02,16.42,0.464,0.22,-6.29,8.69,-96.9,-1.5,-3.5,-2558,84.1,8.21,12.6,
37.23708636,-107.9091363,32:42.5,6/11/19,10,2.495,177.8,9.191786132,0.82,168.6,174.64,4.08,9.2,19.9,0,8.26,8.26,96,58,517.7,16.2,-3.5,D,600.6,0,94.913,2.5,2.49,192,176.17,-107.9090648,37.23623469,0,0,1,N,0.6035182,81,81,11,117,117,172.2199,0,9999.99,8.3,8.427,2,9,17.8,0,17.79999924,0.22,1475.6321,6/11/19,10:18:02,16.42,0.464,0.22,-6.29,8.69,-96.9,-1.5,-3.5,-2558,84.1,8.21,12.6,
37.23707521,-107.9091357,32:43.5,6/11/19,11,2.491,177.61,9.191786132,0.82,167.2,173.23,4.9,8.2,19.9,0,8.29,8.29,96,58,517.7,16.2,-3.6,D,597.9,0,93.673,2.5,2.49,192,176.16,-107.9090648,37.23623469,0,0,1,N,0.6302015,86,86,11,122,122,172.03,0,9999.99,8.33,8.457,2,9,17.8,0,17.79999924,0.22,1475.6321,6/11/19,10:18:03,16.41,0.464,0.22,-6.295,8.67,-95.8,-0.1,1.8,-4937,84.1,8.22,12.3,
37.23706395,-107.9091352,32:44.5,6/11/19,10,2.464,177.31,9.191786132,0.82,167.9,173.94,3.69,8.2,20,0,8.32,8.32,96,58,517.7,16.2,-3.6,D,597.9,0,92.42,2.5,2.46,192,176.14,-107.9090648,37.23623469,0,0,1,N,0.6507637,79,79,11,119,119,171.8836,0,9999.99,8.35,8.477,2,9,17.8,0,17.79999924,0.22,1475.63214,6/11/19,10:18:04,16.41,0.464,0.22,-6.272,8.68,-96.4,-0.2,-2.2,-466,84.1,8.22,12.5,
37.23705274,-107.9091348,32:45.5,6/11/19,11,2.452,177.27,9.191786132,0.82,168.6,174.64,3.45,8.7,20,0,8.35,8.35,96,58,517.6,16.2,-3.5,D,598.3,0,91.174,2.5,2.44,192,176.1,-107.9090648,37.23623469,0,0,1,N,0.691665,78,78,11,115,115,171.5928,0,9999.99,8.39,8.517,2,9,17.8,0,17.79999924,0.22,1475.63208,6/11/19,10:18:05,16.42,0.464,0.22,-6.292,8.7,-97,-0.9,-4.7,-3311,84.1,8.22,12.5,
37.23704308,-107.9091341,32:46.5,6/11/19,10,2.449,176.81,9.191786132,0.88,167.8,173.84,5.13,8.5,19.9,0,8.4,8.4,96,58,517.6,16.2,-3.5,D,598.3,0,90.099,2.5,2.42,192,176.09,-107.9090648,37.23623469,0,0,1,N,0.7057262,88,88,11,118,118,171.4929,0,9999.99,8.43,8.557,2,9,17.8,0,17.79999924,0.22,1475.63203,6/11/19,10:18:07,16.42,0.463,0.22,-6.288,8.72,-98.7,-1,0,-2268,84.1,8.22,12.4,
37.23702972,-107.9091331,32:47.5,6/11/19,10,2.459,176.34,9.191786132,0.82,167.7,173.73,3.97,8.3,20,0,8.42,8.42,96,58,517.6,16.2,-3.5,D,598.3,0,88.61,2.5,2.48,192,176.09,-107.9090648,37.23623469,0,0,1,N,0.7013945,81,81,11,118,118,171.5237,0,9999.99,8.45,8.577,2,9,17.8,0,17.79999924,0.22,1475.63211,6/11/19,10:18:08,16.42,0.463,0.22,-6.277,8.71,-98,-0.2,-5,-4034,84.1,8.22,12.5,
37.23701921,-107.9091324,32:48.5,6/11/19,10,2.444,176.69,9.191786132,0.82,167.7,173.73,3.91,9.6,20,0,8.44,8.44,96,58,517.6,16.2,-3.5,D,598.3,0,87.441,2.5,2.47,192,176.07,-107.9090648,37.23623469,0,0,1,N,0.7148935,80,80,11,118,118,171.4277,0,9999.99,8.48,8.606999,2,9,17.8,0,17.79999924,0.22,1475.63211,6/11/19,10:18:08,16.42,0.463,0.22,-6.277,8.71,-98,-0.2,-5,-4034,84.1,8.22,12.5,
37.23700803,-107.9091321,32:49.5,6/11/19,11,2.421,176.67,9.191786132,0.77,166.5,172.53,4.74,8.4,20,0,8.51,8.51,96,58,517.6,16.2,-3.6,D,593.8,0,86.198,2.5,2.48,192,176.04,-107.9090648,37.23623469,0,0,1,N,0.7615646,85,85,11,121,121,171.0963,0,9999.99,8.54,8.667,2,9,17.8,0,17.79999924,0.22,1475.6322,6/11/19,10:18:09,16.41,0.463,0.22,-6.298,8.7,-97.4,-0.9,-4.4,-2649,84.1,8.22,12.4,
37.23699668,-107.9091313,32:50.5,6/11/19,11,2.465,176.42,9.191786132,0.77,165.9,171.92,3.43,9.3,19.9,0,8.54,8.54,96,58,517.6,16.2,-3.6,D,593.8,0,84.934,2.5,2.49,192,176.02,-107.9090648,37.23623469,0,0,1,N,0.7710705,78,78,11,125,125,171.0288,0,9999.99,8.57,8.697,2,9,17.8,0,17.79999924,0.22,1475.63233,6/11/19,10:18:11,16.42,0.463,0.22,-6.287,8.69,-96.6,-0.4,-4,-3055,84.1,8.22,12.3,
37.23698531,-107.9091303,32:51.5,6/11/19,11,2.49,176.43,9.191786132,0.77,167,173.03,3.67,8.5,20,0,8.56,8.56,96,58,517.6,16.2,-3.6,D,593.8,0,83.667,2.5,2.43,192,176.03,-107.9090648,37.23623469,0,0,1,N,0.7548351,81,81,11,122,122,171.1441,0,9999.99,8.59,8.717,2,9,17.8,0,17.79999924,0.22,1475.63205,6/11/19,10:18:12,16.42,0.463,0.22,-6.295,8.69,-96.7,-0.3,-1.9,-1821,84.1,8.22,12.6,
37.23697269,-107.9091289,32:52.5,6/11/19,11,2.462,175.55,9.191786132,0.77,166,172.02,4.76,8.1,19.9,0,8.61,8.61,96,59,517.5,16.2,-3.6,D,591,0,82.258,2.5,2.44,192,176.05,-107.9090648,37.23623469,0,0,1,N,0.7169092,86,86,11,125,125,171.4134,0,9999.99,8.64,8.767,2,9,17.8,0,17.79999924,0.22,1475.63205,6/11/19,10:18:12,16.42,0.463,0.22,-6.295,8.69,-96.7,-0.3,-1.9,-1821,84.1,8.22,12.6,
